<?xml version="1.0" encoding="ISO-8859-1"?>
<markers>
<!--
you need "lat", "long", "name", "mail", "image" attributes
images will get resized to 48x48, so best use images of this exact size
-->

<marker lat="49.45903" long="11.09805" name="Markus W. Weissmann" mail="mww@macports.org" image="images/mww.png" />
<marker lat="52.529055" long="13.388761" name="Elias Pipping" mail="pipping@macports.org" image="" />
<marker lat="45.53375" long="-122.69855" name="James Berry" mail="jberry@macports.org" image="images/jberry.jpg" />
<marker lat="48.241612" long="-68.383097" name="Yves de Champlain" mail="yves@macports.org" image="images/yves.png" />
<marker lat="35.949" long="-79.024" name="Jeff Johnson" mail="n3npq@mac.com" image="images/jbj.jpg" />
<marker lat="42.447528" long="-71.409411" name="Kevin Ballard" mail="eridius@macports.org" image="images/eridius.jpg" />
<marker lat="10.496" long="-66.8982" name="Juan Manuel Palacios" mail="jmpp@macports.org" image="" />
<marker lat="35.7194" long="139.6951" name="Paul Guyot" mail="pguyot@kallisys.net" image="images/pguyot.jpg" />
<marker lat="42.353417" long="-71.125423" name="Yuen Ho Wong" mail="wyuenho@macports.org" image="images/wyuenho.png" />
<marker lat="38.068310" long="-78.500573" name="Randall Wood" mail="rhwood@macports.org" image="images/rhwood.jpg" />
<marker lat="42.6978230" long="-84.5150650" name="Daniel J. Luke" mail="dluke@macports.org" image="images/dluke.jpg" />
<marker lat="48.523870" long="2.191564" name="Pierre Queinnec" mail="pmq@macports.org" image="images/pmq.png" />

</markers>

